NAME,SHAPE_Leng,SHAPE_Area,Area_calc,lat,lon
WILSON RESERVOIR,0.034914910544,2.757237275e-05,270561.736,-37.51001775248238,144.01854920219148
SUGARLOAF RESERVOIR,0.212902971555,0.00043759909475,4284887.27,-37.672015168559675,145.30546667448777
GREEN LAKE,0.155044997386,0.00071469351,7111145.66,-36.435338183618754,144.83418677261471
LAKE TAYLOR,0.244253141042,0.0004899685715,4853573.62,-36.783436899772425,142.38361438566585
UPPER STONY CREEK RESERVOIR,0.0597624275559,5.1191851875e-05,500287.353,-37.81835304591356,144.20363450185346
LAKE EILDON,5.12426268915,0.0135475811701,133545843.0,-37.16223066332908,145.9658190871287
LAKE MENINDEE,0.525286930212,0.0150080498569,156676810.0,-32.342073559486025,142.328468564745
LAKE BATYO CATYO,0.0717029533348,0.000193487022875,1923223.68,-36.51557078378622,142.9391396389067
WARANGA BASIN,0.621329211533,0.00567073368062,56337552.7,-36.55521837642095,145.09679129423787
LAKE NILLAHCOOTIE,0.279357607044,0.000521263463,5156878.86,-36.88446999335252,146.0025060721685
CAIRN CURRAN RESERVOIR,0.691859134741,0.00178172096913,17589754.0,-37.046679301215434,143.99271662187354
LAKE CARGELLIGO,0.568859802226,0.00170729659062,17638352.3,-33.28709301053777,146.40937667020575
MCCAY RESERVOIR,0.0285328391056,1.894317975e-05,186904.825,-37.0915514186922,144.30048895256786
LAKE BUFFALO,0.212492758863,0.000304097225625,3014382.14,-36.730874253646256,146.6594563705928
LAKE FYANS,0.0976730829607,0.000440130844125,4339988.57,-37.13779766259387,142.6228729354119
MAROONDAH RESERVOIR,0.111136782027,0.000196303325,1923128.02,-37.63415248421112,145.56416204585742
UPPER YARRA RESERVOIR,0.502968500934,0.0007468490825,7311507.79,-37.68742713934322,145.92625931141038
LAKE ALEXANDRINA,2.79480730652,0.0618541462481,623034682.0,-35.449258144617666,139.14902371941932
LAKE ALBERT,1.22584934904,0.0185489006911,186449002.0,-35.61879404135788,139.283803834557
WHITE SWAN RESERVOIR,0.0724770185183,0.000124091964,1217631.9,-37.513508281388525,143.92067323399988
BOSTOCK RESERVOIR,0.0919786546572,9.882519925e-05,968571.814,-37.60218771817856,144.17668317040832
PINE LAKE,0.189715067604,0.000665843432,6595862.01,-36.782352221423544,142.3497029421029
CARDINIA RESERVOIR,0.591998199973,0.00132266898975,12901497.8,-37.96138518271378,145.41900909851728
DOCK LAKE,0.0524984130495,0.0001719267105,1703311.62,-36.7731372777209,142.29635351135266
MALMSBURY RESERVOIR,0.212625576113,0.00030372910725,2992043.64,-37.21306225107771,144.37123414562427
GONG GONG RESERVOIR,0.0348617139713,2.583847275e-05,253431.725,-37.54465840912044,143.93465099761386
LAKE MOKOAN,0.582159885411,0.00764820293112,76078136.6,-36.45705159510553,146.09154718106714
LAANECOORIE RESERVOIR,0.205180002112,0.00017316811075,1714030.56,-36.844911857594866,143.87244563840733
GOULBURN WEIR,0.221111147202,0.000368154324375,3649432.93,-36.72914647908248,145.17476414421725
LAKE EPPALOCK,1.46026910747,0.00313665447375,31030630.5,-36.885491915545494,144.55878607242263
LAL LAL RESERVOIR,0.234426524986,0.000343719743875,3366188.19,-37.65965943756632,144.0636964895518
OSHANNASSY RESERVOIR,0.0416650877816,2.673986125e-05,261829.453,-37.67262162953508,145.80750240905292
TOOLONDO RESERVOIR,0.256262655297,0.00136801071663,13511104.7,-37.01444086900867,141.94824723642415
GREEN LAKE,0.0757184392224,0.000170443343625,1688188.34,-36.79287040753322,142.29281010008478
LAKE DARTMOUTH,2.04866890779,0.00490520888562,48706371.3,-36.596969582918625,147.59035178490623
SILVAN RESERVOIR,0.125247963566,0.000347811937125,3397991.09,-37.84264586298935,145.41321851454256
LAKE BREWSTER,0.384052465986,0.00630967496712,65043845.8,-33.480854308773324,145.96913935746664
UPPER STONY CREEK RESERVOIR,0.0420396478026,7.78956465e-05,761161.127,-37.827875427827124,144.20310094369728
LAKE PAMAMAROO,0.32125838635,0.006488871799,67789674.2,-32.275317538716344,142.4577895616457
MOORABOOL RESERVOIR,0.0847597257355,0.000148348051,1455720.77,-37.50933002198016,144.08377480374114
TULLAROOP RESERVOIR,0.40367676903,0.00074384064875,7336213.83,-37.12268734568156,143.86180912518924
LAKE HUME,4.43484728819,0.0194288083403,194173897.0,-36.08285617994699,147.15027805002688
GREENVALE RESERVOIR,0.0832549569396,0.000167965670875,1645623.22,-37.62905498968226,144.902199093858
LAKE VICTORIA,0.516701838657,0.0109975768988,112709861.0,-33.990969023292614,141.27569667855585
LAKE LOOMBAH,0.0205479567537,1.5323289125e-05,151910.773,-36.72174511959956,146.2230520565294
LAKE WILLIAM HOVELL,0.0879923919407,0.000110226884375,1089917.22,-36.92444869188024,146.39027663310216
SANDHURST RESERVOIR,0.0225782438875,2.459734825e-05,243463.347,-36.845863310624495,144.24395588466143
YAN YEAN RESERVOIR,0.130174502787,0.000502029696125,4923370.1,-37.5552790223655,145.13789210136116
LAKE KEEPIT,1.04720925788,0.0040389002865,42838981.0,-30.83339607081604,150.52125468979023
SPRING GULLY RESERVOIR,0.0513549011108,4.457332725e-05,441413.144,-36.80553039396205,144.2787400268229
LAKE BURRAGORANG,3.68181816365,0.00701730266137,71907880.4,-34.00256030299414,150.40324793668293
TARAGO RESERVOIR,0.278095057926,0.0003645057685,3553630.24,-37.999383264848596,145.92406900429677
UPPER STONY CREEK RESERVOIR,0.0275975570628,5.444152725e-05,532032.594,-37.8201800561068,144.19214489331952
NEWLYN RESERVOIR,0.0446162341039,6.78723925e-05,666904.292,-37.40875302405373,144.00727372241445
KORWEINGUBOORA RESERVOIR,0.0520244925061,6.4404597125e-05,632050.454,-37.502588084678415,144.14453633375425
LAURISTON RESERVOIR,0.197897156946,0.0002107148705,2074410.31,-37.26287882823213,144.38627082100888
UPPER COLIBAN RESERVOIR,0.233156617463,0.000343007645625,3375580.66,-37.29016776383033,144.40095288802934
LAKE CAWNDILLA,0.525774989465,0.00892981357412,93090495.9,-32.472913342085064,142.22838782631308
BARKERS CREEK RESERVOIR,0.0327383630863,4.8286332e-05,477200.758,-36.96548953873892,144.27829996106428
THOMSON DAM,1.03722811107,0.00217234868063,21240603.6,-37.78048870150701,146.36391198472046
LAKE BELLFIELD,0.116076503822,0.000479972589125,4729455.63,-37.19306334702348,142.55080705040774
MCCALL SAY RESERVOIR,0.0290876968338,1.9796917625e-05,196081.389,-36.79323850922196,146.21217715272408
J C WALKER RESERVOIR,0.0312659374868,5.958165275e-05,624311.548,-31.9983175259969,147.76808165242
KARANGI DAM,0.0385736844873,3.2608950375e-05,347866.909,-30.263156338367565,153.02749452935413
ISLAND BEND PONDAGE,0.085284442752,3.273079125e-05,326148.083,-36.318950437368464,148.47146512232197
THREE MILE DAM,0.0395875892622,3.7545602e-05,376156.487,-35.88603566159815,148.45092090687382
GREAT WESTERN DAM,0.01652189607,5.300002375e-06,54957.8263,-32.956432488864834,149.93418310375608
ROCKLANDS RESERVOIR,1.83295756873,0.0065529747545,64520575.7,-37.25223141742319,142.074436001624
LAKE WOODFORD,0.0592839789523,1.5794481e-05,162406.995,-33.70344287853384,150.4857737896013
STEUART MCINTYRE DAM,0.0279868503692,2.323305125e-05,245891.344,-31.044468549346607,152.74534592384794
LAKE JINDABYNE,0.749958584764,0.00265436316037,26431068.4,-36.37440063146142,148.62560832033373
BUSHELLS LAGOON,0.0277806093808,3.767106825e-05,387974.428,-33.562882798542304,150.8243946681718
STANWELL DAM,0.0132314987448,3.61149575e-06,36911.8496,-34.22638104395677,150.9605633523796
WHEENY LAGOON,0.0321593515226,1.4640832e-05,150829.661,-33.53736811967645,150.92479795257535
LAKE TOOLOOMA,0.0117804062751,4.235515625e-06,43334.531,-34.13750090104865,150.98775677872274
GOOREE DAM,0.0137751309748,1.007185925e-05,104977.594,-32.48908544805376,149.55079320476204
LIVERPOOL OFFTAKE RESERVOIR,0.00970385777542,4.888941625e-06,50163.7583,-33.88906372940284,150.826311977165
GEEHI RESERVOIR,0.0698159960417,6.03057335e-05,601059.415,-36.300589734865696,148.31939889297064
LAKE BURRUMBEET,0.272484961012,0.00235496740713,23110985.9,-37.50278355196568,143.6449184196526
TALBOT RESERVOIR,0.0231098209106,1.8611416625e-05,183248.791,-37.25190706286193,143.63805811644164
LAKE JINDABYNE,0.100263413674,5.5736002125e-05,555518.833,-36.299828239111754,148.62669801890567
THOMPSONS CREEK RESERVOIR,0.0842431891557,0.0001605971715,1656420.02,-33.43336144661142,149.9985135390945
LAKE LONSDALE,0.337261668549,0.00225448723775,22262196.8,-37.0288864600765,142.62819355238508
MANLY RESERVOIR,0.0471043209579,2.8127877875e-05,288979.82,-33.777697781860816,151.25065103096827
COCHRANE LAKE,0.0325243145578,2.0593125875e-05,204555.523,-36.56792899531608,149.45409855436094
HUMPHRIES CREEK TAILINGS,0.0172106879147,1.1141037125e-05,120429.455,-28.903879544721747,152.37898920411726
PLASHETT RESERVOIR,0.204821449841,0.000454474189875,4739608.05,-32.436928768504146,150.9088449834366
LAKE CHICHESTER,0.180871470384,0.0001353145095,1414300.21,-32.23207948061313,151.67269459236863
GOSLING CREEK RESERVOIR,0.0196191137387,1.6080068125e-05,166048.915,-33.328205063240304,149.0888882361482
BAKERS LAGOON,0.0366588728943,3.020947875e-05,311063.79,-33.580898911972376,150.78437175848487
BENDEELA PONDAGE,0.0202428129019,1.93593025e-05,196704.211,-34.72632235338241,150.47732519921615
LAKE BUNINJON,0.100788635535,0.0003041097415,2985528.68,-37.47526055027775,142.78513945176732
DUNNS SWAMP,0.095491867993,3.449972325e-05,358230.039,-32.83316658180321,150.20567986490246
BEAUFORT RESERVOIR,0.0186797315429,1.6493907125e-05,161995.655,-37.44214361050498,143.3834808187463
TOOMA RESERVOIR,0.157284361287,0.0001185396,1185007.8,-36.06211280134489,148.27054627397004
HAYES RESERVOIR,0.0159839671969,1.9708683625e-05,193096.419,-37.62787997660854,142.08780745930713
KARKAROOK LAKE,0.020414552411,1.47790795e-05,144194.903,-37.94184790301867,145.08517666363358
ROCKY VALLEY STORAGE,0.145258000552,0.000260331851375,2575657.92,-36.87888427410266,147.29679946943466
CRUCKOOR RESERVOIR,0.0139050491609,1.49897455e-05,146766.168,-37.67742519711279,142.0422750051147
COWARRA DAM,0.0412534944067,5.6122594875e-05,591111.487,-31.510574496810015,152.7643084022287
ROCKY LAKE,0.229395323624,0.000181381802875,1965708.93,-28.629470426273304,153.34886640638646
GRAHAMSTOWN LAKE,0.476033822804,0.0023645899425,24578467.7,-32.738671298907235,151.81182557328657
KHANCOBAN PONDAGE,0.00137350152984,1.3943175e-07,1390.46491,-36.25677023852814,148.1166466900298
MURRAY 2 PONDAGE,0.0548751355934,1.369764825e-05,136624.041,-36.24161199753997,148.18575134502558
LAKE HAMILTON,0.0524380791561,3.7004641125e-05,362040.26,-37.73488247616318,142.04076897176157
HORSE SHOE LAGOON,0.0410187233054,0.00010631886,1044922.05,-37.390641191789605,143.54372614358533
BROWNLEA LAGOON,0.0113451459191,5.7307505e-06,58948.9379,-33.670175176384305,149.48669685209472
LAKE WALLACE,0.0882199203468,0.000122681534,1265582.65,-33.41735433378323,150.07972426430922
LAKE KIMBERLEY,0.011788031738,6.259365625e-06,68098.5083,-28.210782016298214,153.54174390964602
KHANCOBAN PONDAGE,0.0272307834136,7.072623875e-06,70545.4043,-36.240323186536955,148.12911820404827
EVANSFORD RESERVOIR,0.0339734896878,2.285202525e-05,224921.024,-37.27947397650531,143.65436621507186
BALD BLAIR LAGOON,0.0175186463668,1.9843991375e-05,211799.117,-30.212621305059013,151.79113097899017
KHANCOBAN PONDAGE,0.203693753965,0.000279410722875,2787113.04,-36.23604209877003,148.11592206165025
HAPPY JACKS PONDAGE,0.0417399043728,3.69982275e-06,37012.6157,-36.00468452574188,148.44935407463822
LAKE LEARMONTH,0.0988157096904,0.00050370560475,4947673.52,-37.4343819851025,143.70776715630947
MOORA MOORA RESERVOIR,0.126113284744,0.000384681431,3788618.18,-37.231098695084754,142.42566878841197
GUTHEGA PONDAGE,0.0617955603614,2.060738975e-05,205183.23,-36.38087798438869,148.3669482148868
KONONG WOOTONG RESERVOIR,0.0537492779686,6.732953775e-05,660835.652,-37.493296040464486,141.65101659017108
BAMARANG RESERVOIR,0.0348656257438,5.6963577875e-05,577558.608,-34.905086258170314,150.5168715747908
LAKE SOOLEY,0.100585603166,0.000130334191625,1324584.74,-34.70743198292652,149.6786995838734
GREEN HILL LAKE,0.152836618781,0.000241769983625,2379410.13,-37.28625727462231,142.98288694571116
BONG BONG RESERVOIR,0.0665012785874,2.635307925e-05,268394.453,-34.528197841311446,150.4031902639952
MOUNT COLE RESERVOIR,0.0213348740207,1.1604823625e-05,114216.064,-37.282414835604726,143.20590308720784
LAKE GUY,0.0205609790908,1.5261051875e-05,151138.515,-36.8018763236873,147.22612893016068
HORSESHOE LAGOON,0.037999374667,1.36941315e-05,148070.557,-28.87285086389907,153.0671337438696
BELAR DAM,0.184287406074,8.1963192875e-05,864303.144,-31.3971969961688,147.2034451870615
LAKE LYELL,0.199638679885,0.000171862843625,1771015.34,-33.513143525210864,150.07410017624565
COCKPIT LAGOON,0.0280671260426,5.8345261875e-05,572995.505,-37.44816568858049,143.62452557161328
MOUNT BEAUTY PONDAGE,0.0439681844399,2.883260475e-05,285778.956,-36.73773607757889,147.1680000663164
LAKE CANOBOLAS,0.0210891316042,1.4047491875e-05,145097.773,-33.30489881800409,149.027831457311
LAKE JINDABYNE,0.0403058756933,1.7947450125e-05,178797.691,-36.33705737819116,148.58517467227026
MARDI DAM,0.0546533632252,6.3279727375e-05,653681.678,-33.29677410686719,151.39034522305687
MANGROVE CREEK DAM,0.734212578438,0.000512555332,5301094.07,-33.18948749258108,151.12801482449203
SILVERY PLAIN DAM,0.0123705677671,2.167446e-06,22660.5966,-32.20514948422467,147.2228814961408
MINALONG LAGOON,0.0141756028028,2.8528345e-06,29731.0825,-32.50013390526731,147.1015407754856
ROSENDAHL RESERVOIR,0.0341237079045,2.9223946625e-05,307961.284,-31.461070415667656,152.90402736811288
PRETTY VALLEY PONDAGE,0.021167489196,1.3526700625e-05,133797.855,-36.897415018680704,147.23904779752516
WARTOOK RESERVOIR,0.241155419674,0.000831781661375,8208525.67,-37.075909640311124,142.45302220834606
LAKE LIDDELL,0.320648346036,0.00109422378938,11419622.9,-32.37071728489052,150.98867936416633
LAKE JINDABYNE,0.0144226240779,6.371556625e-06,63422.265,-36.403227254802104,148.5998287442801
HARTWICHS RESERVOIR,0.0137467054629,1.0885877125e-05,106554.968,-37.69853266617937,142.03820229345897
LAKE EUCUMBENE,0.00280973329785,3.5833325e-07,3577.07367,-36.17565257489978,148.7629351224561
BLACK SWAMP,0.0370669549654,8.8726244875e-05,870723.19,-37.503758984916495,143.6033771456211
MALPAS RESERVOIR,0.147450129158,0.0001580739305,1686106.87,-30.275024752158718,151.73960876968303
Tarong Cooling Water Dam,0.0255560326213,2.895702975e-05,319081.965,-26.775917387541767,151.90776773758694
RYLSTONE RESERVOIR,0.133244831165,7.5022898e-05,779408.186,-32.78628448620584,149.9964944487813
LAKE TUGGERANONG,0.074535382351,5.9792034625e-05,602562.261,-35.40866536029704,149.06894300207043
LAKE OBERON,0.301365270302,0.000397832669626,4089615.0,-33.7271187235938,149.84190814125068
LAKE CORDEAUX,0.644461273757,0.0007607410825,7762256.94,-34.36971749688178,150.77358642798046
LAKE ALBERT,0.0497176637375,0.000116675386375,1179261.66,-35.16716202487249,147.37306216262564
JUGIONG RESERVOIR,0.0142739497863,3.96942275e-06,40393.0346,-34.598982956267726,148.3595994315088
TANTANGARA RESERVOIR,0.000536421574218,1.37155e-08,137.591219,-35.7801027824268,148.62543938232596
LAKE ST CLAIR,0.800321189219,0.00141965479975,14820888.0,-32.33974638002247,151.27851711882772
NELSON CREEK,0.0229631415063,8.64778625e-06,85986.5675,-36.48877014155707,149.7232956906731
LAKE GINNINDERRA,0.110423408333,0.000103045081375,1040714.95,-35.22932585186934,149.07105625166977
TUMUT TWO PONDAGE,0.0395201320752,1.4526898625e-05,145455.846,-35.93261875078704,148.36167377696384
PROSPECT RESERVOIR,0.163567491932,0.000487175008875,5002666.79,-33.8206765820855,150.89291806528104
HURLEYS DAM,0.0250204489532,8.053772125e-06,81893.0274,-34.66350619442366,147.601494249948
TANTANGARA RESERVOIR,0.00386305034878,1.7969175e-07,1802.6398,-35.779778728094556,148.62486034849013
TUMUT POND RESERVOIR,0.17060796768,0.000142952502,1430741.32,-35.96760757487302,148.40722035063425
TALBINGO RESERVOIR,0.809181150132,0.00166514267012,16723258.9,-35.688543231341505,148.32126933299458
TANTANGARA RESERVOIR,0.7974885318,0.00198652447237,19936856.0,-35.745842844869095,148.6591187125928
SPRING CREEK RESERVOIR,0.095067049605,8.8865216625e-05,917627.254,-33.33097867396534,149.11901623230318
YERRABI POND,0.0439753671507,2.58285135e-05,261024.95,-35.17638117250014,149.13119209679004
LAKE YARRUNGA,1.16870596685,0.000849087808749,8624381.72,-34.75511942192928,150.35355992184927
LAKE BURRENDONG,3.30508535304,0.00808212816575,84063105.6,-32.67982159566211,149.1785529856309
LAKE WINDAMERE,0.00530813991342,1.1666855e-06,12116.9894,-32.8134261028887,149.8257194169052
FITZROY FALLS RESERVOIR,0.142936210254,0.0004663964555,4743650.63,-34.64215615181254,150.49802895439095
LAKE SPRINGFIELD,0.01614790843,1.3841709375e-05,140056.88,-35.074770700189596,149.0744516408238
LAKE GILMAN,0.0503920949762,9.4510274e-05,953720.363,-35.2981843300228,146.99719027174172
BEREMBED WEIR,0.0368143407455,1.4201722125e-05,144028.433,-34.884100954086705,146.83957950936608
GUNGAHLIN POND,0.032604763018,2.51277105e-05,253902.059,-35.189582157599176,149.10899003620952
LAKE DAVID,0.007061665482,2.97056625e-06,29833.7626,-35.688689953902966,147.56546437268443
TANTANGARA RESERVOIR,0.00137742447675,8.617425e-08,864.230767,-35.80373318618525,148.6498224242346
LAKE WINDAMERE,0.00312923361604,4.6056675e-07,4783.09687,-32.81853207681873,149.84628783197812
BLOWERING RESERVOIR,0.0010817298302,8.4334875e-08,849.688234,-35.42871834784517,148.2821564374957
LAKE MEDLOW,0.0208616980971,4.953917e-06,50964.7561,-33.658725776639066,150.297037240462
LOWER CASCADE CREEK DAM,0.00984981210061,3.78776e-06,38955.8409,-33.68516714563614,150.30473900359348
CORIN DAM,0.225643978895,0.000279373507375,2810379.25,-35.55542502395931,148.8312539960979
BENDORA DAM,0.11000147335,7.034338375e-05,708471.735,-35.457612702644965,148.82442746876995
SUMA PARK RESERVOIR,0.118318322116,0.00016403375775,1694766.05,-33.28146334128563,149.1451549964817
GOGELDRIE WEIR,0.0557708796229,2.180642975e-05,221847.201,-34.62040093990939,146.26435965645265
LAKE TALBOT,0.08663739784,4.817799575e-05,489367.171,-34.753050402623245,146.57456931817225
TANTANGARA RESERVOIR,0.000590138610715,1.4326625e-08,143.721711,-35.78021528058336,148.6259113340924
WINGECARRIBEE RESERVOIR,0.17730571471,0.0005416471425,5514638.18,-34.555770270356916,150.49573751722838
LAKE BETHUNGRA,0.0325147645712,1.82737345e-05,185586.603,-34.765989259728194,147.90869769712683
LAKE EUCUMBENE,3.05287899493,0.0137654293782,137569815.0,-36.08500577158266,148.70672351699486
LAKE GLENBAWN,0.927267082745,0.00225266415962,23587576.2,-32.063059766082226,151.01177139508567
JOUNAMA PONDAGE,0.243779886256,0.000281357828625,2829530.36,-35.578781996473616,148.29809136799423
LAKE AVON,1.12787368102,0.000927463299625,9458511.9,-34.41389082263472,150.67737879897132
LAKE BURRINJUCK,2.55919773795,0.00480936964575,48727640.7,-34.96497578294678,148.72071179059793
TANTANGARA RESERVOIR,0.000365040400117,7.790125e-09,78.1491122,-35.78000050546901,148.62568648560946
LAKE BURLEY GRIFFIN,0.369866315644,0.000616428435125,6220719.81,-35.29516975424001,149.11485433930318
LAKE NEPEAN,0.447597022805,0.000295501704,3015580.78,-34.3579581849756,150.59738434635108
MAUDE WEIR,0.0444115738678,1.387094775e-05,141348.775,-34.48056823708785,144.30714740336987
BENDORA DAM,0.00656155997235,1.025169375e-06,10325.2325,-35.45668242193041,148.82322721214223
MIDDLE CASCADE CREEK DAM,0.00811158399058,2.28389675e-06,23487.8659,-33.68981751661118,150.30263593392843
CHIFLEY DAM,0.451982300969,0.000347989836125,3583211.03,-33.58095761008318,149.65502714338976
DRY DAM,0.0134339480744,5.207859875e-06,52147.1571,-35.93019645455669,148.40207612828672
LAKE WORONORA,0.409360008913,0.000334805034125,3425727.24,-34.13095772914472,150.93810543951756
BLOWERING RESERVOIR,0.00427839054964,6.81651625e-07,6864.90816,-35.46270856406711,148.28224346947965
LAKE CATARACT,0.74194995309,0.000840817370625,8587244.19,-34.29080761819705,150.82792347297732
LOSTOCK DAM,0.209744846995,0.000208245580875,2174199.05,-32.33294042192858,151.44240399385262
COTTER DAM,0.0754900482212,4.0848452e-05,412116.172,-35.316773094228516,148.92914773906196
BROGO RIVER,0.202962760075,9.276193e-05,922426.731,-36.482151022294524,149.72596025607157
BLOWERING RESERVOIR,0.879712968179,0.00420961370325,42387237.0,-35.47765041298367,148.26054021920297
LAKE WINDAMERE,1.18730107089,0.00196379185687,20403750.2,-32.777211525377865,149.81262722058753
JUGIONG RESERVOIR,0.0119070303122,1.591255625e-06,16193.931,-34.59256578663016,148.35406360382487
UPPER CASCADE CREEK DAM,0.0333884816757,2.0050761875e-05,206190.818,-33.69558041051156,150.29948267274432
TANTANGARA RESERVOIR,0.000315963033434,7.228375e-09,72.514069,-35.77963184262829,148.62379753020213
TANTANGARA RESERVOIR,0.000396004413504,1.095225e-08,109.871038,-35.77995251468687,148.624221668702
WINBURNDALE DAM,0.039840139648,2.327013125e-05,240139.004,-33.38624982564088,149.78042025775144
LAKE WINDAMERE,0.0189261419854,8.6053655e-06,89367.2743,-32.8200760012526,149.8375694311164
LAKE GREAVES,0.0167292893217,4.625782625e-06,47590.4889,-33.655947007695175,150.3074831408691
GOOGONG RESERVOIR,0.395043264128,0.000589373416375,5937121.44,-35.441364078245975,149.26642690884174
Balonne River,0.157825923635,4.0517372126e-05,439337.941,-28.57212286463444,148.2223706573963
Weir River,0.186934868429,3.184726375e-05,345639.351,-28.474588139941602,149.51011276332846
Macintyre Brook,0.0280676977029,5.4902675e-06,59619.3045,-28.414356869030176,151.07302435518076
LAKE LESLIE,0.394212189481,0.00112865942037,12275867.6,-28.240397705255834,151.90329483900246
Charleys Creek,0.077937122307,1.3320155e-05,146822.286,-26.740050465868,150.6119149168641
Dogwood Creek,0.138800072262,4.49728915e-05,495958.141,-26.68332959137847,150.17794399613356
ENOGGERA RESERVOIR,0.113929866363,6.183952975e-05,677436.27,-27.446246157944874,152.92004863508288
LAKE WIVENHOE,4.64040483428,0.00998372084612,109522671.0,-27.287505567022073,152.5504857332484
ADVANCETOWN LAKE,1.02266449285,0.00135611567063,14771950.9,-28.07630935420829,153.28036052532224
BOONDOOMA LAKE,1.07786647967,0.00130734761975,14484819.3,-26.132760184629337,151.4232128470303
LAKE BARAMBAH,0.729631294075,0.00117410814512,12985363.5,-26.345030731360843,152.00790787692972
Gordonbrook Dam,0.18377243645,0.00017787140625,1965569.49,-26.443859999830735,151.74859490983334
GUNNIBLE LAGOON,0.0267573927476,1.7098122625e-05,181184.785,-30.924038298627714,150.2306248627904
TORRUMBARRY WEIR,0.104337174116,5.2944662375e-05,530027.73,-35.947789334100406,144.47786156756476
QUIPOLLY DAM,0.0829833463461,0.00010493534875,1106342.61,-31.414699499686126,150.71017023517504
LAKE ROWLANDS,0.105903411218,7.4076168375e-05,761955.287,-33.672893934589,149.18481299072687
MILLBROOK RESERVOIR,0.123643978178,0.00016837862,1708830.07,-34.825336432228475,138.81624469451447
OLD LEAD RESERVOIR,0.00700820117772,2.58897175e-06,25633.8358,-36.82064284477874,143.73507816870165
MOREDUM RESERVOIRS,0.0012205673763,9.6324625e-08,1029.66105,-30.05912056460465,151.4105818519931
MOREDUM RESERVOIRS,0.00241955040718,3.1950875e-07,3415.40242,-30.05855183876574,151.40778512466923
GORORA SWAMP,0.031056005518,4.3386630625e-05,458345.317,-31.222501471790814,150.12238894010764
LAKE YANDO,0.0340380235034,7.6860222625e-05,768546.186,-36.04171475594172,143.78407482093473
WHITE HILLS TANK,0.00297909085603,5.37586875e-07,5577.08295,-32.91392919579049,144.44533796095075
GOLD CREEK RESERVOIR,0.0480843999086,2.0616333125e-05,225821.35,-27.458893111460444,152.8777237684041
BUCKINBAH WEIR,0.203416311285,0.000160116510001,1744588.94,-28.047130449888204,148.74774598629924
1400 DAM,0.0227466319106,1.7681787e-05,194972.522,-26.695968650080307,147.50073304297837
TURTLE WATERHOLE,0.507692488997,0.000328929905875,3515289.32,-30.082204997051345,145.41263226557393
GALLYMONT DAM,0.00533303847774,1.2457205e-06,12805.4832,-33.728447462090884,149.10678293906284
MOREDUM RESERVOIRS,0.00180745976486,2.0603525e-07,2202.41447,-30.058972705864633,151.40760701734877
NUMBER TWELVE TANK,0.00189548240532,2.04084125e-07,2157.36164,-31.160963449291046,146.03101321383798
NUGGETY GULLY RESERVOIR,0.00982048811281,5.842090375e-06,57711.9673,-36.997295326312724,143.72883897585237
HUNGERFORD DAM,0.040078962212,4.714554875e-06,50428.4568,-29.994419115005037,145.84252310425066
MURRECHI WATERHOLE,0.0813331274075,1.371292925e-05,148011.21,-29.06027100140352,145.41176911534745
GOAT PADDOCK DAM,0.0248044989007,1.2547718375e-05,138363.971,-26.692963531580308,147.4802049092549
BOGOLONG DAM,0.0167625335699,9.6349375e-06,98898.3983,-33.85602158283764,148.1107789432206
GROVES WEIR,0.0887853790459,2.4742338625e-05,245611.263,-36.6187792175937,144.87059548307238
TIN HUT DAM,0.0572405213361,5.585699e-05,583498.155,-32.282206815801175,146.21740506330272
KOORINGAL SEWAGE TREATMENT WORKS,0.018499116574,1.594127725e-05,161152.009,-35.151514025099495,147.38891329697486
LIGNUM TANK,0.00556364303282,5.7080625e-07,6028.77487,-31.24389586735617,146.2633122252246
CROPPERS LAGOON,0.0657276323934,5.440344175e-05,544156.802,-36.01783207483542,146.3376410813852
BEARDY WATERS,0.0735447526747,3.7181728875e-05,398721.233,-29.73530988706401,151.77971055405004
BAROOTA RESERVOIR,0.0457059855181,5.6014635e-05,581089.242,-32.917347107875145,138.06479981600316
MOREDUM RESERVOIRS,0.00290700686669,2.6138125e-07,2794.04029,-30.058683128924628,151.40718834665887
SWANBANK LAGOON,0.0013578681373,9.3864e-08,1026.30781,-27.659021962364438,152.81623073075832
LITTLE PARA RESERVOIR,0.137477631175,0.00015405915,1564984.3,-34.74598349253515,138.72795485930357
WALPEUP STORAGE CHANNEL,0.00473201740703,1.52457375e-06,15415.0172,-35.13577065943718,142.0283276517188
KANGAROO CREEK RESERVOIR,0.114846845237,0.0001087986,1103664.48,-34.86360714169576,138.78579920326783
CHINAMANS DAM,0.00772877403776,1.538352125e-06,15701.8736,-34.341298921560096,148.31594235618564
CONNOLLY DAM,0.0685511653085,4.789732525e-05,520379.667,-28.360556405489888,152.00222652006852
LAKE PINDARI,0.68347344826,0.00078831758525,8482350.39,-29.385048987513045,151.2705888611835
GIDGEE DAM,0.0424590745931,6.982075925e-05,746743.88,-30.00289483936522,145.8057279133121
CHINAMANS TANK,0.00871347829267,4.48919175e-06,47478.7786,-31.11247892783351,145.83154256935376
COOBY CREEK RESERVOIR,0.129478762661,0.000249081135375,2730161.19,-27.38254435532644,151.9444276790434
MATANGRY LAGOON,0.0166521218276,5.668047375e-06,57683.3767,-34.59161024168808,146.06972657955663
ORANGE TREE LAGOON,0.145289654921,5.0861687625e-05,542813.951,-30.220700397499346,145.70625378682067
MOREDUM RESERVOIRS,0.00122694629279,9.6792625e-08,1034.67589,-30.057942522647416,151.40775265087473
THOULCANNA DAM,0.0141703435444,3.717402125e-06,40136.1471,-29.028315521464183,144.36953149262393
CLAYTONS TANK,0.00348634225052,8.45960875e-07,8972.64529,-30.834703981562278,145.72074743153038
COLLYTOOTELA LAGOON,0.113839810081,4.7364426125e-05,507845.403,-29.749562469530673,148.97261715386642
LAKE SAMSONVALE,1.54915053006,0.001932677992,21206404.4,-27.262502387179087,152.8945089392875
BUNDALEER RESERVOIR,0.0402069711915,7.309845e-05,753719.643,-33.45999011435488,138.53939927875803
LAKE WOORABINDA,0.0171342393459,1.2776564625e-05,131713.56,-33.47737833705466,145.5323949981118
MUNGABARINA LAGOON,0.0291393378808,9.096628125e-06,90918.2179,-36.07816412477823,146.97545297049484
LAKE DYER,0.0587403007625,9.0161857875e-05,986085.797,-27.62986629316202,152.37360965173139
MOREDUM RESERVOIRS,0.00156832917424,1.68005125e-07,1795.88262,-30.05949965684714,151.41011010941023
STORM KING DAM,0.115270358951,8.005698275e-05,866856.706,-28.722420006587512,151.99072750041816
BORDER DAM,0.0179790969298,1.8261445875e-05,197191.715,-29.01431176965818,144.88445251229533
LAKE COPETON,1.06357908004,0.00432678080662,46316424.3,-29.916065249302854,150.978289010525
MANU MANU DAM,0.0186607893691,2.980621375e-06,32769.2871,-27.038136218952744,144.23621688513188
BOOYA DAM,0.0171209143494,8.564695e-06,93260.4083,-28.115613297535017,143.77824663404442
LAKE KERFERD,0.0235756211411,2.15644855e-05,214748.853,-36.367602223108904,146.7406768016825
LAKE CRESSBROOK,0.352825781453,0.000441670676,4846321.7,-27.260901958681764,152.1900692354846
COOKS LAGOON,0.0560161005532,1.7333493375e-05,173255.381,-36.07264063208879,146.84000435643304
BAROSSA RESERVOIR,0.0614884038028,6.005795e-05,610767.441,-34.65229566329133,138.84828298193665
GIRDLERS TANK,0.00577956042395,9.9258875e-07,10201.1787,-33.747455256337595,147.30916034424095
MOREDUM RESERVOIRS,0.00263601199491,3.95011875e-07,4222.4931,-30.058621769604983,151.41019183599172
LAKE SAMSONVALE,0.00299129475212,2.5298325e-07,2776.60927,-27.23229514775121,152.88047897025785
LAKE INVERELL,0.0886955124424,3.500974275e-05,375216.554,-29.793394780638135,151.14438764649321
CROOKED LAGOON,0.0144959653873,3.307060125e-06,35626.8895,-29.260167705057757,150.4575644139087
SKINNERS FLAT RESERVOIR,0.0308183620962,2.2518283125e-05,224250.148,-36.366604237328254,143.58176040719906
HAY WEIR,0.043119222896,1.7404668875e-05,177271.065,-34.522366295625844,144.71333590537043
STEPHENS CREEK RESERVOIR,0.184540589408,0.000749714863125,7866169.01,-31.873318372358245,141.5782045335086
LAKE KURWONGBAH,0.314414054891,0.00030035305325,3296341.39,-27.238274655924265,152.9568861833685
GLENLYON LAKE,0.522296762617,0.00120522529987,13023247.2,-28.941916807626026,151.45393234675103
LAKE CLARENDON,0.0938610449238,0.0002953328075,3233622.93,-27.504529113293135,152.3489949704185
LITTLE NERANG DAM,0.11178763736,4.6552941625e-05,506735.407,-28.153736108656105,153.28377559352228
YARRIAMBIACK CREEK,0.0158072944939,2.960975625e-06,29596.0588,-36.07293897658357,142.40827714408178
MUKUDJEROO WATERHOLE,0.0269737506594,3.67966875e-06,39635.5059,-29.27461784659373,145.08714302465742
MOREDUM RESERVOIRS,0.00101360717218,7.0648375e-08,755.211574,-30.05692141350562,151.41428485010212
ST ARNAUD WATER SUPPLY,0.0134260454367,1.3591835125e-05,135052.553,-36.543347339965095,143.08662403059077
MOREDUM RESERVOIRS,0.00229491622943,3.67694375e-07,3930.53832,-30.057259087032133,151.4079689300254
LAKE SOMERSET,2.19574092135,0.00374166611462,41140027.1,-27.0279711209187,152.58132060512008
CADIANGULLONG DAM,0.0497058739145,3.2248892375e-05,332638.043,-33.42840110342287,148.98899825695244
LAKE MAROON,0.166097505386,0.000280603394125,3053384.24,-28.190359589078273,152.64518786446826
SUMMIT RESERVOIR,0.0151620496057,1.04579e-05,105892.96,-35.015803534138485,138.8648326931156
YARRIAMBIACK CREEK,0.0148544729125,4.84523775e-06,48427.6408,-36.07680237825991,142.4037333684083
HUNGERFORD DAM,0.0809131018164,0.000254148672875,2718601.8,-29.988307740715108,145.83875481905218
HAPPY VALLEY RESERVOIR,0.0941882102563,0.0001732001,1752574.91,-35.072233869389585,138.57218359188298
UMBERUMBERKA RESERVOIR,0.227409769217,0.000134851465375,1415537.15,-31.830344763341618,141.21611980707064
LAKE MANCHESTER,0.310841773341,0.00025507554175,2793432.37,-27.480713269329677,152.76347153853234
JACK TAYLOR WEIR,0.331050244451,0.000207765959376,2264550.5,-28.00889880424422,148.61854862751588
RED DAM,0.0125019065383,3.51984925e-06,38772.3275,-26.81598973062347,147.06564124445086
LAKE HUME,0.00145136639967,1.531425e-07,1532.69513,-35.96932999391702,147.03693783675337
LAKE ATKINSON,0.161629193081,0.000512853838875,5619105.04,-27.42774294929696,152.44469217139806
LAKE WYANGALA,1.42490880945,0.003718772086,38125208.3,-33.961501205168034,149.00194140844184
BROMELTON OFFSTREAM STORAGE,0.0397697046932,9.4191883e-05,1027231.14,-27.94715571108467,152.9541039326909
TOBYS TANK,0.0220565718052,4.461080375e-06,47636.3549,-30.146904891072726,145.8917139218475
MOREDUM RESERVOIRS,0.00138456913085,1.29349375e-07,1382.67366,-30.05950728972308,151.40966786083396
SHEEP DIP LAGOON,0.0188292542579,5.384954625e-06,53858.8617,-36.02199214365384,146.74302326578643
TAREELAROI WEIR,0.0607389562844,3.6278071375e-05,390108.185,-29.450546168852696,150.04135614354715
CARCOAR LAKE,0.0015614540579,1.85237e-07,1906.72922,-33.61021368116184,149.18208666673422
DAYDREAM TANK,0.0133121447215,7.769377125e-06,81573.7526,-31.808960963471144,141.36635642185158
RED HEART DAM,0.0077615885365,1.478052875e-06,15372.9923,-32.682252335286734,147.26159268328797
MOREDUM RESERVOIRS,0.00323995254286,4.98775e-07,5331.64803,-30.05921373445477,151.40866385337026
SOUTH PARA RESERVOIR,0.298910691794,0.000379871332501,3861093.4,-34.697242086432375,138.86482105584275
MOREDUM RESERVOIRS,0.00145471822633,1.38607625e-07,1481.64504,-30.059116750198623,151.41008855470554
MOREDUM RESERVOIRS,0.0020857293445,2.80062375e-07,2993.75709,-30.058008658989056,151.41033998819472
GOLDFIELDS RESERVOIR,0.00634734290165,2.05786125e-06,20424.3636,-36.63252830236236,143.24248739597394
LOWER LILA DAM,0.225712452072,9.65929585e-05,1036608.12,-29.657542363406176,145.62470693779528
HOPE VALLEY RESERVOIR,0.0458484406624,5.674525e-05,575706.713,-34.852516857126076,138.68454933386786
BALDWINS DAM,0.0139596238497,2.117505625e-06,21598.7528,-34.3980447586197,147.69779720691372
MOREDUM RESERVOIRS,0.00233927395673,3.29225e-07,3519.26367,-30.05867530000999,151.40881164099218
CRAIGS CHANNEL,0.0451653412914,1.2913734625e-05,129059.161,-36.0843751706778,142.40619453328557
IMPERIAL LAKE,0.00298299904386,6.71818e-07,7043.77813,-31.940974948791865,141.49680806910212
SWANBANK LAGOON,0.0294727577515,2.018443575e-05,220700.392,-27.656978839759134,152.81437545788344
MOREDUM RESERVOIRS,0.00334969754143,5.60564e-07,5992.11928,-30.059534519648942,151.40836155115645
TONYS DAM,0.014180231114,6.303712125e-06,65510.8434,-32.75585371750728,146.48315927755556
BRADYS TANK,0.0031341720259,7.42642125e-07,7695.31127,-33.01999605543288,145.07639366685913
MOREDUM RESERVOIRS,0.00306027240455,4.7787525e-07,5108.29316,-30.05812491823729,151.4090625568853
MANNUS LAKE,0.0960236309525,8.087727775e-05,811025.457,-35.81197226814559,147.9756615759999
LAKE CATANI,0.0270384722941,1.476257525e-05,146329.789,-36.73361734794837,146.80992019089953
DEEP LAGOON,0.0394134870859,2.126872025e-05,212898.498,-35.95614891202358,146.5070387772342
LAKE TULLIMBA,0.0403180970498,3.1516041875e-05,335468.68,-30.482746813095037,151.19890215318685
WIRRINA RESERVOIR,0.01825820575,1.24697e-05,125512.666,-35.50815623182596,138.24323993310455
MOUNT BOLD RESERVOIR,0.265144170972,0.00028527075,2885114.91,-35.114660328084824,138.7057992508146
MOUNT ZERO RESERVOIR,0.00970092149517,6.557682125e-06,64872.0122,-36.88854134550984,142.34382403890478
MOREDUM RESERVOIRS,0.00207598243775,2.7824325e-07,2974.32165,-30.057665516888257,151.41093055251744
MOOLABAH WEIR,0.1101534703,6.9006326875e-05,752323.65,-27.981465312378603,148.71699221008834
LAKE WHITTON,0.0395209852706,3.5772204375e-05,356605.382,-36.28525841045328,142.41426686440417
THORNDON PARK RESERVOIR,0.0130742727245,9.93065e-06,100724.242,-34.874670610567605,138.6871048621859
PEKINA DAM,0.0204367828861,1.6133805e-05,167689.361,-32.745068204692046,138.59659967488963
CARCOAR LAKE,0.302725176995,0.0003649961035,3757614.7,-33.59752130785957,149.20754355952073
OLD QUIPOLLY DAM,0.00867601503103,3.593238875e-06,37884.2776,-31.413578018500264,150.73686897907186
LAKE COPETON,0.00115202395038,8.1792125e-08,875.810143,-29.886026831653012,150.97470308103547
MOREDUM RESERVOIRS,0.00132431471672,1.1973625e-07,1279.91939,-30.05913348241637,151.4096372254079
MOREDUM RESERVOIRS,0.00284451914139,3.3936425e-07,3627.67979,-30.057759844828364,151.40820952838058
LAKE WHITTON,0.0221280810445,3.3154176875e-05,330508.755,-36.284962502787,142.41977384570293
BAYLEY PARK DAM,0.00856354304318,3.470818e-06,36866.8802,-30.691332332945425,150.2416449024848
THE GARDENS WATER STORAGE,0.0343111117277,6.05077235e-05,645589.001,-30.247218326962567,149.3509733205879
BARDEN LAGOON,0.0241969972489,7.803137875e-06,84473.7871,-28.74587002536725,150.69373177034788
WALKERS LAKE,0.0226702797603,3.4574129125e-05,343555.449,-36.539583507668375,142.92654512696782
BAMBILL SOUTH STORAGE TANK,0.00689668177814,3.295526625e-06,33585.0138,-34.473734069398475,141.5063748047677
LAKE KAJARABIE,2.45714881421,0.00229784202725,25087484.3,-27.823386991266347,148.65509499424732
ETTAMOGAH FOREST DAM,0.0387748881943,5.648384925e-05,565137.913,-35.99337700087185,147.01970587366833
LAKE CLARENDON,0.00495404287333,8.72971875e-07,9558.70398,-27.499000979408716,152.3543623223994
MOREDUM RESERVOIRS,0.00227804897848,2.97985875e-07,3185.34976,-30.058087749815964,151.41102496227464
LAKE ENDEAVOUR,0.0483890548514,4.882524275e-05,505451.503,-33.105008672589435,148.41698488873362
BEALIBA RESERVOIR,0.00827814455766,2.988600375e-06,29596.5417,-36.80489464423038,143.57370061443214
MOREDUM RESERVOIRS,0.00294094934842,5.2000525e-07,5558.61681,-30.0585861647122,151.4111883600837
BUNDAMBA (DALYS) LAGOON,0.038300157425,3.361238025e-05,367265.641,-27.73539762131849,152.83743408358927
TALLEBUDGERA CREEK DAM,0.0258617550923,8.28112125e-06,90119.9472,-28.179474440669605,153.35826787108275
CHAFFEY RESERVOIR DAM,0.203760834092,0.000541869925875,5716411.69,-31.3572116277885,151.1272296796085
LAKE WIVENHOE,0.00119963433666,1.02770625e-07,1127.04767,-27.323695877134956,152.64180779327037
CHINCHILLA WEIR,0.294831736993,0.000136886700125,1508044.61,-26.801403357274953,150.59375839484557
MOREDUM RESERVOIRS,0.00361209211928,5.2194425e-07,5579.28777,-30.059727593519263,151.4077767663105
BEETALOO RESERVOIR,0.0421359929034,3.165905e-05,327458.93,-33.18244991239996,138.213917149309
WARREN RESERVOIR,0.0824263541008,7.38172e-05,750219.855,-34.70550366716471,138.9260930772413
LAKE SAMBELL,0.0209867343942,1.412368275e-05,140663.145,-36.36018009994834,146.6955396956342
MOREDUM RESERVOIRS,0.00258601444566,3.42048875e-07,3656.36898,-30.05799283104674,151.4084613924978
MYPONGA RESERVOIR,0.187269597918,0.0002802314,2824432.46,-35.398139681351395,138.43804419758993
MOREDUM RESERVOIRS,0.00238064034079,2.623345e-07,2804.2279,-30.05884893560125,151.4093518046756
LAKE WETHERELL,0.746957611993,0.00292014521413,30500879.9,-32.29372480571053,142.58205223085997
IMPERIAL LAKE,0.0256726610903,1.2845894875e-05,134681.953,-31.942910473788924,141.4968984088524
LAKE MOOGERAH,0.28862959393,0.0007919516635,8628948.54,-28.04647009422524,152.5402253265695
NEW DAM,0.0436673279312,0.0001269541455,1356779.89,-30.08108888602987,145.83350443419835
SPLIT ROCK DAM,1.09503756349,0.00227823832313,24239983.6,-30.525485782764527,150.69348468491904
Splityard Creek Dam,0.096643230193,9.5610394e-05,1048124.79,-27.36699630605633,152.64265998116508
LAKE COOLMUNDA,0.373282803774,0.001373466419,14910745.6,-28.44222993713943,151.23352288330187
MOREDUM RESERVOIRS,0.00204105076479,2.76119375e-07,2951.60485,-30.058112386628146,151.40983285562632
TOMBULLEN STORAGE,0.0749096036395,0.000316552461625,3219390.43,-34.64783095714866,146.15184138159518
ST ARNAUD RESERVOIR,0.0176781627283,1.6763236375e-05,166472.977,-36.586984620499514,143.2096850494964
COPPERMANA DAM,0.0559790915754,1.856710375e-05,198558.026,-30.015744468196143,144.19344368592078
OLD DAM,0.0352233956949,9.765298975e-05,1043742.36,-30.07057296470008,145.80523457737522
LAKE PERSEVERANCE,0.246018381068,0.000199165828,2184647.38,-27.299358506745968,152.12348477110987
WEST BARWON RESERVOIR,0.244166408002,0.000176127123375,1704409.1,-38.54689340610333,143.71610327120155
WURDIBOLUC RESERVOIR,0.100301828006,0.000568090765125,5517113.26,-38.285312719941196,144.03994594849107
WEST GELLIBRAND DAM,0.0591347087602,2.3732167e-05,229483.175,-38.603083902269844,143.65220832934452
ORANGE CREEK WEIR,0.0787963757434,2.607556525e-05,291125.081,-25.199897115361654,150.19836095755932
DEVILBEND RESERVOIR,0.139293506045,0.000239801036374,2328737.88,-38.28948791127116,145.10462439403017
SOUTH YALUP LOWER DAM,0.0192673368278,1.62917225e-05,169024.612,-32.90878700197605,115.9148806467626
LAKE MOYANUP,0.0458820875871,4.2732045e-05,443592.572,-32.857273951910976,115.95289527610848
HARVEY DAM,0.336284073037,0.0004352950125,4507544.61,-33.08000764950713,115.95595474855806
MARY ANN DAM,0.0340435300232,1.1879363375e-05,137950.19,-19.6106294404693,134.21180663705888
SCABBY GULLY DAM,0.025574111197,2.4406542125e-05,249296.717,-34.27934429052103,116.04563993991076
BISHOP DAM,0.0399387914157,3.2918260625e-05,382637.902,-19.449989130783884,134.11874490922264
HELENA RIVER RESERVOIR,0.452441240945,0.000669908096125,7020283.85,-31.987218889858596,116.21356591630651
THIRTY FOUR MILE BROOK,0.0114097014676,5.6072875e-06,58251.2157,-32.790107936334046,116.36621124883344
LILLY DAM,0.0195715750029,8.612898375e-06,100799.877,-18.279224666158854,128.87393597824868
SHANNON DAM,0.0127206430174,5.6400675e-06,57407.1273,-34.579055611725046,116.41204949429326
QUICKUP DAM,0.0414999435959,5.1329525375e-05,520473.695,-34.898760253618356,117.38509817828202
SOUTH YALUP UPPER DAM,0.022661590666,2.6110765e-05,270895.108,-32.909071322177596,115.92260974271242
SERPENTINE PIPEHEAD DAM,0.116498461172,6.1537984125e-05,642109.317,-32.38759190857212,116.07461627935021
MAMINE SWAMP DAM,0.0196725553985,1.96474e-05,202879.801,-33.331282331546866,116.77509397275635
KATANNING RESERVOIR,0.00994213908785,6.1729e-06,63487.9671,-33.68267451538175,117.58556841214559
LAKE BROCKMAN,0.0819699054413,0.00015744049,1631814.03,-32.99773835937642,115.97434901228895
COWAN DAM,0.0390837676618,4.302396525e-05,441557.301,-33.868732829363275,116.036743548644
LAKE NAVARINO,0.106026742469,0.000149656209125,1553718.15,-32.84749357131308,115.99507055891745
LAKE KABBAMUP,0.0951225450784,9.2342460125e-05,958326.495,-32.88194828507392,116.03069856758084
LAKE CONDAH,0.10120571539,0.00016288123875,1586618.07,-38.06224918602935,141.83272175319567
GLEN MERVYN DAM,0.0483761701836,3.833177075e-05,395069.077,-33.498171468429035,116.1003287011949
Nardellos Lagoon,0.0290588222772,4.642479e-05,546764.916,-17.118073823960078,145.418525603282
POONA DAM,0.0178219747361,1.2985914125e-05,143315.214,-26.59582908520418,152.9101488979809
CEDAR POCKET DAM,0.0497305211301,1.7648627125e-05,195403.725,-26.215089195419363,152.7937369279075
KARRI LAKE,0.0257323125165,1.7314334e-05,176532.989,-34.434711292640536,116.25762581345084
MOOCHALABRA DAM,0.0424709898579,2.40205305e-05,285030.419,-15.617404448957656,128.10612634050221
VICTORIA RESERVOIR,0.0657169642257,6.7743258375e-05,709471.122,-32.04539454483597,116.07341574082814
WUNGONG RESERVOIR,0.175979440196,0.000276119579875,2886480.18,-32.21624482943158,116.07678193717643
LAKE ARGYLE,7.38292136401,0.0849480343146,1004587240.0,-16.314509273884656,128.7628973360581
GAP DAM,0.0570844363102,5.7928335e-05,683756.251,-16.691158013102832,128.38448283787187
NORTH DANDALUP DAM,0.162459153956,0.000310317903,3233461.29,-32.515591128738855,116.02839403148062
SEVENTEEN MILE DAM,0.323301068297,0.00041335211025,4843512.98,-18.06103509446598,124.34311834415044
LAKE BANKSIADALE,0.539852360056,0.000838903410376,8726812.77,-32.66645906075101,116.08602357055032
CANNING RESERVOIR,0.310781471534,0.000484679155376,5069236.32,-32.169941842910205,116.14321763896957
SERPENTINE DAM,0.666429664533,0.00116392419425,12140352.3,-32.421355736788094,116.13626726432476
MUNGALUP DAM,0.0205373050174,1.647596425e-05,169991.493,-33.40413167223307,116.09569504468998
LAKE GRAHAM,0.0159320528775,1.5809205e-05,185191.208,-18.11469881063177,125.82391651989255
MILLSTREAM DAM,0.0117752446233,5.37936275e-06,55183.0926,-33.90906006133628,115.94987406584092
CHURCHMAN BROOK DAM,0.0305573392777,2.5293517e-05,264590.956,-32.15325723815287,116.08186910049346
SCOTTS DAM,0.0284159667472,3.11824625e-05,364812.829,-18.340802599562117,127.33284875646936
ORD RIVER,1.14145051555,0.00128234827838,15195256.2,-15.908442783299911,128.73356923651482
STIRLING DAM,0.211504179292,0.000308296463,3191422.63,-33.108990851325885,116.04430823148013
TEN MILE BROOK DAM,0.0397977440608,2.8692760625e-05,294155.753,-33.96305553730064,115.12597631216349
BIG BROOK DAM,0.0358882441035,2.49423e-05,254391.17,-34.406161089568045,116.02364907970262
LAKE BALLINGALL,0.503968319134,0.00090116613175,9317910.45,-33.21231387846318,116.14127952031333
FITZROY RIVER,0.176038936459,0.000107107345126,1253925.8,-18.21864137521257,124.48781048148882
WELLINGTON DAM,0.766038023636,0.00142017255,14656040.3,-33.383833489400374,116.00946948764667
DENMARK DAM,0.0495864793039,2.4681098375e-05,250241.011,-34.90604095602059,117.34781479985631
LAKE CALLIDE,0.327345684584,0.000933571757375,10492599.3,-24.355382229809084,150.64193249037447
LAKE ROSS,0.913108197802,0.00466016944025,54167952.9,-19.453869700761928,146.78253234950913
LAKE PROSERPINE,1.31948111657,0.00346319188338,40027073.1,-20.37275776155558,148.3400225204887
KOOMBOOLOOMBA DAM,1.40980649858,0.00123605853475,14500792.1,-17.847150358514522,145.6300512490779
LAKE TINAROO,2.12858551559,0.00298746573862,35170856.2,-17.192912907133902,145.58263722073633
LAKE MORRIS,0.485962672431,0.000252128664125,2971441.6,-16.988423599520683,145.6820966336414
TEEMBURRA CREEK DAM,0.742982688716,0.000881850365375,10137843.6,-21.200739573440636,148.6544905834017
LAKE KINCHANT,0.183353755999,0.000750277512625,8624933.76,-21.20658938037952,148.8824477991517
Lake Lenthall,0.663436840291,0.000710360981499,7917479.36,-25.41047945486639,152.52299562952672
LAKE PARADISE,2.1410786207,0.001587698539,17703138.9,-25.360902973107613,151.82789863143657
LAKE MONDURAN,0.0084519853543,4.21481325e-06,47198.3928,-24.82318802056957,151.79821497114352
LAKE CANIA,0.483589565982,0.000511837187625,5740335.41,-24.630839187189675,150.97991034682678
Lake Barambah,0.0395083111972,4.2650156375e-05,471412.582,-26.41717785674286,152.0162460071234
LAKE MACDONALD,0.217758713561,0.0002028812,2242922.72,-26.392226565653722,152.93866619905572
COOLOOLABIN DAM,0.170921445534,0.00015337039525,1693346.61,-26.54608981981574,152.87873740487063
LAKE BAROON,0.216490951374,0.000353779455876,3900566.48,-26.7099114908003,152.8715466572103
WAPPA DAM,0.0904026270018,6.4624409375e-05,713368.847,-26.56948239080594,152.9189163500819
LAKE MONDURAN,4.46485160725,0.004620539637,51745161.2,-24.814947966567292,151.79291284311842
WURAMA RESERVOIR,0.808333874295,0.001286748157,14370383.0,-25.162945807891834,150.97830718433224
AWOONGA RESERVOIR,2.52643452568,0.00571471335875,64344377.6,-24.12139333813598,151.27017447120184
LAKE BORUMBA,0.418267418251,0.0003878860135,4283537.25,-26.520656191404917,152.5592649328434
EWEN MADDOCK DAM,0.192312800555,0.0003083782985,3397842.71,-26.78362712155243,152.99405613264392
CAMP HORN TANK,0.0100329638453,5.60855e-06,64652.4957,-20.78389435269958,143.3770188052765
CHINAMAN CREEK DAM,0.119458054387,0.0001043798525,1203705.61,-20.72373476318997,140.47146869757165
MEADOWBANK LAKE,0.569621472726,0.000651515234625,5942725.97,-42.56611453417927,146.78084122422013
LAKE PEDDER,3.99051638019,0.0261908166435,237549051.0,-42.92194529760049,146.17504629365365
SWAN SWAMP,0.0312056717527,2.6363015125e-05,312506.295,-15.831561417132145,142.02996449646986
LAKE PARANGANA,0.143780709559,0.000115541398375,1069011.5,-41.650005892927865,146.22765595824484
LAKE MACKINTOSH,0.8431111142,0.00324715142925,30019599.2,-41.70151318279002,145.67933483914754
18 MILE DAM,0.0111913408758,4.9484925e-06,57020.6638,-20.846570601774875,141.74673386714062
FRENCHS LAGOON,0.0151498833158,8.95725e-06,106194.451,-15.801854456445886,141.54220171760306
KROOMBIT CREEK DAM,0.113272071441,0.000185999433999,2089424.56,-24.421044359776186,150.78330000032975
LAUGHING JACK LAGOON,0.128121481965,0.00036397083025,3340545.23,-42.17130310002392,146.30927770221743
SURPRISE DAM,0.0348142860107,5.515905075e-05,645840.485,-18.197848288599374,140.0882466769663
WARATAH RESERVOIR,0.0847992804239,5.1378834875e-05,476716.13,-41.46403885094144,145.54163083043397
LAKE PIEMAN,2.90089984086,0.002409064352,22250470.1,-41.76331667863431,145.2894812536842
PADDYS DAM,0.00940931919785,5.86462e-06,69242.4673,-16.636068569776896,144.02551556991472
NO2 DAM,0.00168737851607,1.986535e-07,2287.62116,-20.942289400011198,146.3347890488585
PUMP POND,0.0519580119223,6.467085075e-05,592407.403,-42.295039453209,146.39387342366473
LAKE ROSEBERY,0.782182584881,0.000808477643375,7470294.87,-41.73646827102935,145.5885375387504
LAKE KING WILLIAM,0.855713481466,0.0045496875525,41719118.4,-42.22995276676497,146.2309120806978
LAKE DALRYMPLE,8.60773858098,0.0229562153959,264791867.0,-20.68744144200103,146.97420434762265
CURRIES RIVER RESERVOIR,0.0950939605975,0.000163735189875,1527520.05,-41.102545767708925,146.94869364771984
TWELVE MILE DAM,0.0085245887048,4.1902e-06,44578.8145,-30.534502279445686,120.97721022679902
FLAT HOLE DAM,0.0104853875726,5.98468e-06,70005.4404,-18.3689084598398,141.10510381740767
EDGAR POND,0.0397467629643,4.7402749375e-05,429166.397,-43.03429980035447,146.34712372367323
LAKE PALOONA,0.252590615374,0.000183924512375,1710569.32,-41.30815104509373,146.24930128358847
LITTLE PINE LAGOON,0.0933224475395,0.000249001359,2291456.5,-41.99943891303572,146.60172307601883
YELDULKNIE RESERVOIR,0.0246958392638,2.415867e-05,248448.762,-33.69052781437286,136.54725915581028
BLUE DAM,0.0142279025466,1.1634198625e-05,123334.122,-30.884940944660055,121.348824683755
ORCHARD DAM,0.01055443142,4.313906875e-06,49683.9891,-20.92190171872694,146.4004842293849
MOURA WEIR,0.258760167157,0.000136106636626,1526537.64,-24.624116640134407,149.94677839601803
OPHTHALMIA DAM,0.381649545964,0.00108104757825,12242482.1,-23.351510666706346,119.86753446191477
NEVILLE HEWITT WEIR,0.106923606604,5.9822853251e-05,673232.756,-24.186963021003805,149.8091521468685
LAKE MITCHELL,0.473749618189,0.00248991731425,29370988.6,-16.815420185060947,145.33805027762065
KANGAROO DAM,0.00472380816151,1.39635e-06,16538.1666,-16.007333778780378,143.02143994963058
GOOSE DAM,0.025005322976,3.87736125e-05,455321.374,-17.666081186430265,143.26263892342223
BEDFORD WEIR,0.217290829093,0.000116476343625,1318892.17,-23.368158057154677,148.8136200525486
LAKE ROWALLAN,0.322154817515,0.00095700281075,8837379.7,-41.77538389394679,146.211334954062
DINGO HOLE,0.0205854344558,1.763425e-05,205886.123,-18.699915422978933,139.79139252394253
LAKE ECHO,0.399831912682,0.00437678804025,40179671.8,-42.15650083638078,146.6422737009942
VILDERS DAM,0.0152668441381,8.9526225e-06,104561.75,-18.638473461009134,140.56839184387076
NECTAR BROOK RESERVOIR,0.0172547188583,1.46427e-05,152267.667,-32.6994323891541,137.97402552343488
COMPANION RESERVOIR,0.0367259835784,3.0959940375e-05,287814.567,-41.33684790205278,145.71346203741365
THE LAKES DAM,0.0632902958011,5.63412375e-05,668628.079,-15.594428434769334,141.54588082152057
HAYSTACK DAM,0.010462359115,4.537635e-06,53564.4345,-16.675150616415074,144.02307853843848
CATTLE DAM,0.0111311622202,6.30155e-06,74689.9135,-15.855065084886526,144.85278644849285
LAKE BINNEY,0.121522158922,0.000436053317625,3996164.2,-42.266756923950226,146.49137941631548
LAKE PALUMA,0.179165551347,0.000205502645375,2395885.22,-18.94626955517371,146.15602772284936
SAINT CLAIR LAGOON,0.0880019609772,9.255863025e-05,850279.1,-42.11303217444513,146.21154277066518
WAYATINAH LAGOON,0.130700312219,0.00023924159025,2188108.0,-42.394918101989525,146.51150025296076
LAKE BURBURY,2.16042196506,0.00531993899387,48865949.4,-42.11965208755642,145.65804347238458
BULLOCK WATERHOLE,0.0250604237535,1.12886925e-05,132373.069,-17.928426840177725,139.74953538849354
TENT HILL RESERVOIR,0.0238117568626,3.10854225e-05,324387.175,-32.37888041528587,137.58163495842183
MCGRATH DAM,0.0062559737206,2.4648e-06,29096.5177,-16.669090808246793,144.27028459300277
LAKE SAMUEL,0.0784608553672,0.000196012370125,1798997.47,-42.171856363460314,146.53788047051674
TARTRUS WEIR,0.0920334466824,5.95867475e-05,676848.258,-22.935628415305,149.41722525947444
GYRANDA WEIR,0.104029211957,9.1633870125e-05,1022273.86,-25.295642190906154,150.1695650272677
YELLOW WATERHOLE,0.0268459891165,1.47623575e-05,172418.158,-18.636821686200417,140.09583748070781
SHANNON LAGOON,0.115333040662,0.000253874122375,2336537.32,-41.992832891810544,146.73930018853042
HONEY DAM,0.0589010385756,9.6489e-05,1143503.57,-15.88121183128302,144.8234857413643
CARBEAN DAM,0.00475518980166,1.190935e-06,13954.1124,-18.071888964981284,139.72077228198148
MARGARET DAM,0.00811233031822,4.3872075e-06,50550.1283,-20.855194149632514,146.27447406737454
WHITE SPUR LAKE,0.0329162092926,9.550141375e-06,88030.9926,-41.8927589890333,145.5302636446737
BOBBIES HILL DAM,0.0149564507746,1.1231865e-05,132180.305,-17.265295980666473,135.8166279972234
BLACKBURN DAM,0.0193606852518,1.447015e-05,171564.532,-15.788278383465277,144.83760184388777
KELLYS DAM,0.00870143918974,2.63072775e-06,30697.4448,-18.796873525107117,145.5865720142069
MANOOKA DAM,0.0767229235526,0.00018399451,2155503.5,-18.100943534483225,139.99593362239213
SELMA WEIR,0.0406548105247,1.1259511625e-05,127323.86,-23.54892961711549,148.141153853543
GATTONVALE OFFSTREAM,0.028825625996,5.8445640875e-05,673854.764,-20.75511660153537,147.94043197456864
NUNDAH DAM,0.023384337784,2.68955e-06,31901.3884,-15.704735162387546,141.54543156259095
CRAIGBOURNE DAM,0.180651135789,0.000205310097875,1873253.87,-42.547863315444104,147.4037896211871
HOMESTEAD DAM,0.0112213981276,7.00245e-06,82999.342,-15.850395681511484,144.87364225832863
THEODORE WEIR,0.129226511408,5.1352908875e-05,574413.544,-24.965411812760617,150.07254293612752
BISCHOFF RESERVOIR,0.0398053230783,2.65823715e-05,246684.634,-41.453004239857435,145.5597177402867
HESLINS DAM,0.0209234259437,3.01165425e-05,352581.795,-18.22000930734499,140.42750632651297
BIG REEF DAM,0.0262672577812,1.668962e-05,194924.748,-18.639620346760317,143.6197482319121
FOGG DAM,0.0723581337783,0.0002040386875,2452877.85,-12.570080173500735,131.29775488809068
TOD RIVER RESERVOIR,0.0606962769613,0.000106958145,1089937.54,-34.48012903933219,135.8472677107442
LAKE MACKENZIE,0.118050411579,0.00031837584875,2944517.23,-41.675715751494955,146.39082499280084
LAKE THERESA,0.207916051457,0.000236928617375,2690384.44,-22.981779913189776,147.55238023548327
LAKE SAINT CLAIR,0.442478961151,0.003156609923,29018263.2,-42.06767294425191,146.16781398201553
GREAT LAKE,1.43604895499,0.0183957404659,169590869.0,-41.88386079044821,146.7422756823814
TALBOTS LAGOON,0.183177015206,0.000286987116625,2664035.04,-41.433410727045704,145.7333877201671
DINGO WATERHOLE,0.0420790517723,4.746595e-05,556864.125,-17.841013233507375,139.73597593909597
DEE LAGOON,0.282033062742,0.000701477277375,6429065.81,-42.2622943705699,146.59421261577629
WOODS LAKE,0.159844905969,0.00130283008712,11974274.1,-42.08089493114142,147.00295574392715
TUNGATINAH LAGOON,0.0499322974446,0.00012006342025,1100139.68,-42.27659973569951,146.46828136153863
LAKE MARGARET,0.0888332258984,0.000172131716125,1584259.09,-41.99119509508639,145.58856909992377
LAKE MARABOON,2.66121254552,0.0132715573748,149914780.0,-23.693270501211618,147.99821970940138
LAKE MORGAN,0.0245183757924,4.06744325e-05,478411.022,-17.36679669539065,138.26198607924036
ORANGE CREEK WEIR,0.266734030994,0.00010687724425,1192706.55,-25.256538378620522,150.17850907358218
LAKE GORDON,5.88056786389,0.0298376849883,271512506.0,-42.716758404193385,146.17130446632703
ROSTREVOR RESERVOIR,0.0522973581446,5.5174739e-05,503892.383,-42.48782415068046,147.93854115713575
TOOTH DAM,0.00768091975087,3.58411e-06,41871.4153,-18.59272635747041,143.8491105214451
RAYS DAM,0.0154315158173,1.40983e-05,165138.03,-18.127131533423647,140.04414058183139
PINE TIER LAGOON,0.114863884634,0.00010374123475,953422.107,-42.08498958402066,146.4845757350958
LIGHTHOUSE DAM,0.00919455129223,4.5299925e-06,52978.3474,-18.40563642323548,143.60426624567913
PLAIN CREEK DAM,0.0353389128863,4.7026015e-05,551357.637,-17.95519329892407,140.06461947747235
MIDDLE RIVER DAM,0.0283437236158,1.4539525e-05,145965.213,-35.720390967853376,137.09546415758743
LAKE TREVALLYN,0.224897864298,0.000141313179125,1311309.56,-41.456918096976445,147.07204227563105
BRADYS LAKE,0.153867815765,0.00068533092125,6283634.54,-42.236312449771724,146.5086833818939
MOURA OFFSTREAM,0.0390433302503,4.8517358625e-05,544230.134,-24.607274409953398,149.97555119381877
MURPHYS LAGOON,0.0432663006224,4.0094733625e-05,366478.539,-42.43460932235723,147.6628246704337
TINGALPA RESERVOIR,0.336468182397,0.000382326526,4184747.05,-27.541401353101303,153.17164085013025
DUNSTANS TANK,0.012814921881,7.78957e-06,91394.3563,-17.82564319184971,140.92920681201693
LAKE CETHANA,0.42698780951,0.000489915863125,4541421.52,-41.525403960714,146.12682041354944
WICHERINA DAM,0.0202523525529,1.0979945125e-05,118881.191,-28.731119267116604,114.9997418675345
LAKE REPULSE,0.21234194493,0.000164466629,1501932.91,-42.49144330050793,146.62732193062067
SEVEN MILE WATERHOLE,0.00859887384203,3.264585e-06,38098.7064,-18.77476682354726,141.1628716900507
GUIDE RESERVOIR,0.0575160899595,4.07083775e-05,379022.136,-41.23492872380924,145.76181001919474
POKINO DAM,0.0258004905992,2.633556e-05,308230.352,-18.27017637816371,140.42597106707896
LAKE LEAKE,0.165704772257,0.000641120651,5898992.66,-42.01011492358845,147.8232552055376
MOUNT MORGAN NO7 DAM,0.069188711394,4.0343516e-05,455898.704,-23.640304591236074,150.40703324269512
CASCADE DAM,0.0556230564264,5.1768445625e-05,482435.222,-41.17478525988619,147.82432069819893
DARWIN RIVER DAM,0.706363287455,0.00352733291,42357115.6,-12.860550329892485,131.0053796367144
SCATTERBRAIN DAM,0.00534420288827,1.63485e-06,19376.557,-15.862669539509232,144.89707184665258
LAKE NEWTON,0.0741245863586,5.4792156375e-05,504891.061,-41.91462490840488,145.56081640257403
LAKE HENTY,0.0194125041241,3.46227475e-06,31921.0636,-41.87931576741115,145.5507614659755
FITZROY RIVER,0.0347951286591,2.8209500625e-05,320071.83,-23.091053598027187,150.1094585081701
PET RESERVOIR,0.0607281402778,6.7187881625e-05,626302.009,-41.156558144571385,145.83269454328948
KELLYS OFFSTREAM STORAGE,0.0288992997004,1.79414505e-05,203698.327,-23.003069269797574,150.69190748977417
GAP DAM,0.0286566588605,4.48489425e-05,525622.788,-18.02702212147747,140.02727238869815
TARRALEAH NO2 POND,0.0271790363105,3.4053235125e-05,311885.249,-42.30612603681355,146.414242511556
LAKE CATAGUNYA,0.209171241502,0.00019637726375,1794861.04,-42.43777268106588,146.561562240083
LAGOON OF ISLANDS,0.131046088105,0.0009994067125,9183267.77,-42.096673272149204,146.93166011939752
ONE MILE DAM,0.0202500905633,2.031265e-05,240754.587,-15.858077741727454,144.83160034537588
LAKE POONGKALIYARRA,0.57882719673,0.00132442649,15244621.0,-21.01243197381241,117.11602266686153
PENSTOCK LAGOON,0.0653873428177,0.000159976796375,1470063.65,-42.0930944727647,146.7682157323757
BINGEGANG WEIR,0.0652000517027,3.1690411375e-05,359594.527,-23.08084771197832,149.02229603048946
LAKE MURCHISON,0.634554783436,0.000474181213125,4374888.46,-41.83344095578489,145.69191120526636
CLUNY LAGOON,0.11549265407,8.80537495e-05,803874.815,-42.51076022577368,146.67264352476496
BEHAN DAM,0.00835071063036,1.843331e-06,21244.5373,-20.81621282493171,146.23248724899415
KELLYS DAM,0.0200302531904,1.4862481375e-05,173429.233,-18.795055413935454,145.5936669847081
TASSIE CREEK RESERVOIR,0.0127761475937,9.7390375e-06,101334.511,-32.646008742871366,137.10150772693208
LAKE PLIMSOLL,0.158968631324,0.000332273784875,3063062.95,-41.88767491647744,145.61533979564246
GLEBE WEIR,0.125826491518,0.00010355538275,1153560.66,-25.478176620400177,150.01001425980346
LAKE EUNGELLA,0.356065079329,0.00074549207575,8572778.29,-21.156156234173597,148.39969010565818
BRUSHY LAGOON,0.032916566245,7.0633772875e-05,656147.645,-41.38608356936354,146.7251906591267
BIG LAGOON,0.0139087866437,7.309805e-06,85252.0246,-18.886908780463962,139.74993675306132
ARTHURS LAKE,0.781053429066,0.0069713898745,64173533.4,-41.980582988287146,146.9238907279321
LAKE GAIRDNER,0.0823604948337,9.9066874e-05,918996.293,-41.47772451011232,146.06894012928157
LAKE BARRINGTON,0.583215946295,0.000739723907,6871268.43,-41.389400191470536,146.21655577100418
LAKE LIAPOOTAH,0.0549945743183,1.891545975e-05,173228.77,-42.3110371504702,146.46554500957245
LAKE AUGUSTA,0.357280380059,0.00126514204187,11668817.8,-41.85370565687612,146.53054796533834
RISDON BROOK RESERVOIR,0.0357882802511,3.394919375e-05,308512.758,-42.80092482123569,147.33352435044432
MANTON DAM,0.256096488084,0.000362211195001,4349518.59,-12.860717070513754,131.1174253522463
BRONTE LAGOON,0.163091923208,0.000562762158875,5163213.94,-42.194290225018584,146.48729521671973
TOONUMBAR DAM,0.148722388862,0.00010884742425,1179888.49,-28.60544293489792,152.77034922480584
MOONEY MOONEY DAM,0.126194929819,4.3158609375e-05,445464.691,-33.36952202998421,151.25166349991846
LAKE MULWALA,1.16145911963,0.00366766671488,36692860.0,-36.00046028814236,146.0715797108663
WYARALONG DAM,0.884055662663,0.00110748159838,12080245.5,-27.92474327080567,152.84544668858132
BLANCHETOWN WEIR,0.18093662253,0.00023826394325,2432358.56,-34.326756747841756,139.61789295271484
WAIKERIE WEIR,0.0874556829992,7.5502322375e-05,772933.963,-34.08705908136824,139.94637078384724
OVERLAND WEIR,0.0277572047622,3.446761275e-05,352421.66,-34.19233833232664,140.36200727983328
RENMARK WEIR,0.0476833299953,3.36692495e-05,344296.793,-34.18271289046128,140.7737823279971
CRAIGIE DAM,0.0174135904977,1.69727e-05,192798.556,-22.932082357118592,137.6971968383149
WAGGABOONYA LAKE,0.116051296855,0.00011630525,1349922.14,-19.693784992768308,139.3887385804008
KING RANCH DAM,0.00506062418668,1.84271525e-06,21250.3385,-20.72222715558125,138.73646740388702
FOUR CORNERS DAM,0.0238852250482,1.2747032125e-05,147028.772,-20.69173341798137,138.49732856747846
SALTHOLE DAM,0.00908228468905,3.9636e-06,44898.6085,-23.31563183898477,135.1283833250917
SEYMOURS GAP DAM,0.0148759536318,1.1825308125e-05,135547.337,-21.63873214247024,141.33447611000423
JERVOIS DAM,0.0185208684892,1.184875e-05,134871.612,-22.644399122790734,136.24030100549285
LAKE MOONDARRA,0.531099303453,0.0015125179,17457427.4,-20.5888538419075,139.54355941004272
PRICKLY BUSH DAM,0.00668137469898,2.38168525e-06,27458.9146,-20.760993183951086,138.7025099336819
BLACKSTUMP DAM,0.0284198011653,4.663865e-05,529233.965,-23.075420396616686,137.90410395015002
TINAROO TANK,0.00235551742002,3.83202625e-07,4389.27722,-21.74533391082497,143.5808052466253
SNAKE CREEK DAM,0.0053952897929,2.072956875e-06,23933.8857,-20.53729148810984,138.32930656771683
LAKE JULIUS,0.881739175536,0.0010692461,12373406.4,-20.17733888700805,139.72462255194588
ECHO DAM,0.0917071933989,0.0001845718,2130503.61,-20.575723442819168,144.59492865394202
EDGLY DAM,0.0293354793496,1.566065e-05,179963.458,-21.261879090927458,143.94105509006124
EAGLE HAWK DAM,0.0368228371114,2.277155e-05,262834.13,-20.585568622023235,144.56601855522194
LAKE ROBERT DAM,0.0195917215399,2.109420525e-05,239678.263,-22.896090137213214,142.42291064113965
NO 1 DAM,0.0282812724817,2.78557e-05,316863.709,-22.73791665980393,135.2662637484848
ELDORADO DOWNS NO 2 BORE,0.0305537902341,1.99234e-05,228969.595,-21.248083423888534,143.96392886642514
MALTO DAM,0.0261145734036,2.2351210625e-05,256021.593,-21.741605205353288,141.910334330703
LANGHARNE DAM,0.0020149582401,2.71858875e-07,3085.32862,-23.0577041832917,144.94786502688197
GLENROY DAM,0.0477152037134,3.56064e-05,411564.953,-20.360746631935065,139.76655063581737
BREAKDOWN DAM,0.00543285467748,1.975922625e-06,22767.2113,-20.853099323607278,138.79058158644153
BURKE CREEK DAM,0.0264360780282,3.1673250875e-05,365014.514,-20.82550020393184,145.90450793623123
OCEAN DAM,0.0188501985318,1.024205e-05,117454.224,-21.569227537504688,137.25510294739172
DAVES DAM,0.00975834553111,5.659674875e-06,65379.4395,-20.45538571339133,145.56311346587177
MUNGOR DAM,0.0185077919289,1.5211167875e-05,174438.717,-21.569936007352542,141.73101054554596
LAKE SANDERSON,0.0321873435458,4.9541646e-05,560217.107,-23.55051798631754,145.5001970763115
LAKE MARY KATHLEEN,0.154996510067,0.0001539256,1774237.41,-20.795605545080406,139.7850924854409
CRAWFORD DAM,0.0292343730114,7.6123505e-06,87809.7297,-20.68070274660777,138.05080651954648
CAMEL DAM,0.0201147748098,1.5299093625e-05,175084.836,-21.87415789439845,140.52661424493633
PENOLA DAM,0.0106503811504,2.371562125e-06,27319.5097,-20.889058071408325,138.54948589382724
EIGHT MILE LAGOON,0.428722844016,0.000308884849375,3299419.81,-30.132534588497155,145.85366610861445
BUCCA WEIR,0.128484394947,9.525072075e-05,1066102.26,-24.88676128438165,152.07112360497936
KOLAN BARRAGE,0.472444658359,0.00026912654025,3015996.28,-24.728046261779102,152.17604574065192
NED CHURCHWARD WEIR,0.578656799392,0.000513662284624,5740195.23,-25.083942228619286,152.02659538514854
BEN ANDERSON BARRAGE,0.682062353383,0.00053820216225,6021927.96,-24.927563629176284,152.2315073172111
GIRU WEIR,0.0524621106347,2.6539295625e-05,308356.959,-19.52123871812199,147.1135161094821
CLAUDE WHARTON WEIR,0.163419790648,0.00013313004525,1481333.55,-25.617167072502983,151.55928439285117
JOHN GOLEBY WEIR,0.0717604101118,3.9971271875e-05,446105.686,-25.244582744081693,151.15642437052824
KIRAR WEIR,0.257612784718,0.000240386269125,2681688.02,-25.299278958136348,151.0631085211492
MARIAN WEIR,0.266732023444,0.00013431344125,1544632.18,-21.14664099340445,148.88575832646802
MARY BARRAGE,0.192547809293,0.0001153282845,1283147.61,-25.62715200544585,152.61393206577483
TINANA BARRAGE,0.0340018535056,1.16103535e-05,129235.966,-25.571684097336387,152.71334611851472
MIRANI WEIR,0.146221264008,6.2487242125e-05,718352.846,-21.20219754519232,148.81975979843443
